{
  "type" : "FeatureCollection",
  "features": [
    {
      "type": "Feature",
      "geometry": {
        "type": "Point",
        "coordinates": [17.798413, 51.660858]
      },
      "properties": {
        "name": ">>Lotnicza",
        "description": "_8, 12, 21"
        }
    },

    {
      "type": "Feature",
      "geometry": {
        "type": "Point",
        "coordinates": [17.808836, 51.637013]
      },
      "properties": {
        "name": "3-go Maja - Żwirki",
        "description": "12, K-1"
        }
    },

    {
      "type": "Feature",
      "geometry": {
        "type": "Point",
        "coordinates": [17.809222, 51.63688]
      },
      "properties": {
        "name": "3-go Maja - Żwirki",
        "description": "12, 15, K-1"
        }
    },

    {
      "type": "Feature",
      "geometry": {
        "type": "Point",
        "coordinates": [17.811871, 51.635687]
      },
      "properties": {
        "name": "3-go Maja szpital",
        "description": "12, 15, K-1"
        }
    },

    {
      "type": "Feature",
      "geometry": {
        "type": "Point",
        "coordinates": [17.820985, 51.646921]
      },
      "properties": {
        "name": "Al. Powstańców Wlkp.",
        "description": "_2, _5, _5B, _6, _8, 13, 15, 18, K-1"
        }
    },

    {
      "type": "Feature",
      "geometry": {
        "type": "Point",
        "coordinates": [17.831261, 51.652796]
      },
      "properties": {
        "name": "Al. Słowackiego - Kaliska",
        "description": "_5, _5B, 11, 25, C"
        }
    },

    {
      "type": "Feature",
      "geometry": {
        "type": "Point",
        "coordinates": [17.830488, 51.652989]
      },
      "properties": {
        "name": "Al. Słowackiego - Kaliska",
        "description": "25, C"
        }
    },

    {
      "type": "Feature",
      "geometry": {
        "type": "Point",
        "coordinates": [17.825317, 51.65265]
      },
      "properties": {
        "name": "Al. Słowackiego MiniMal",
        "description": "_5, _5B, 11, 25, C"
        }
    },

    {
      "type": "Feature",
      "geometry": {
        "type": "Point",
        "coordinates": [17.82216, 51.652994]
      },
      "properties": {
        "name": "Al. Słowackiego-Limanowskiego",
        "description": "11, 14"
        }
    },

    {
      "type": "Feature",
      "geometry": {
        "type": "Point",
        "coordinates": [17.814286, 51.639633]
      },
      "properties": {
        "name": "Armii Krajowej I",
        "description": "12, 14, K-1"
        }
    },

    {
      "type": "Feature",
      "geometry": {
        "type": "Point",
        "coordinates": [17.814436, 51.639533]
      },
      "properties": {
        "name": "Armii Krajowej I",
        "description": "12, 14, K-1"
        }
    },

    {
      "type": "Feature",
      "geometry": {
        "type": "Point",
        "coordinates": [17.810391, 51.640205]
      },
      "properties": {
        "name": "Armii Krajowej II",
        "description": "12, 14, K-1"
        }
    },

    {
      "type": "Feature",
      "geometry": {
        "type": "Point",
        "coordinates": [17.810563, 51.640066]
      },
      "properties": {
        "name": "Armii Krajowej II",
        "description": "12, 14, K-1"
        }
    },

    {
      "type": "Feature",
      "geometry": {
        "type": "Point",
        "coordinates": [17.788144, 51.659097]
      },
      "properties": {
        "name": "Batorego szkoła",
        "description": "_1"
        }
    },

    {
      "type": "Feature",
      "geometry": {
        "type": "Point",
        "coordinates": [17.787474, 51.659277]
      },
      "properties": {
        "name": "Batorego szkoła",
        "description": "_1"
        }
    },

    {
      "type": "Feature",
      "geometry": {
        "type": "Point",
        "coordinates": [17.798256, 51.659031]
      },
      "properties": {
        "name": "Batorego ZAP",
        "description": "_9"
        }
    },

    {
      "type": "Feature",
      "geometry": {
        "type": "Point",
        "coordinates": [17.798256, 51.658928]
      },
      "properties": {
        "name": "Batorego ZAP",
        "description": "_9"
        }
    },

    {
      "type": "Feature",
      "geometry": {
        "type": "Point",
        "coordinates": [17.790207, 51.660044]
      },
      "properties": {
        "name": "Bema Cmentarz",
        "description": "_1, _6, _8, _9, 12"
        }
    },

    {
      "type": "Feature",
      "geometry": {
        "type": "Point",
        "coordinates": [17.789834, 51.659838]
      },
      "properties": {
        "name": "Bema Cmentarz",
        "description": "_1, _9"
        }
    },

    {
      "type": "Feature",
      "geometry": {
        "type": "Point",
        "coordinates": [17.790427, 51.66226]
      },
      "properties": {
        "name": "Bema cmentarz I",
        "description": "_1, _6, _8, _9, 12"
        }
    },

    {
      "type": "Feature",
      "geometry": {
        "type": "Point",
        "coordinates": [17.861757, 51.740954]
      },
      "properties": {
        "name": "Będzieszyn I",
        "description": "14"
        }
    },

    {
      "type": "Feature",
      "geometry": {
        "type": "Point",
        "coordinates": [17.862787, 51.740263]
      },
      "properties": {
        "name": "Będzieszyn I",
        "description": "14"
        }
    },

    {
      "type": "Feature",
      "geometry": {
        "type": "Point",
        "coordinates": [17.851029, 51.735214]
      },
      "properties": {
        "name": "Będzieszyn II",
        "description": "14"
        }
    },

    {
      "type": "Feature",
      "geometry": {
        "type": "Point",
        "coordinates": [17.851286, 51.734523]
      },
      "properties": {
        "name": "Będzieszyn II",
        "description": "14"
        }
    },

    {
      "type": "Feature",
      "geometry": {
        "type": "Point",
        "coordinates": [17.845621, 51.734417]
      },
      "properties": {
        "name": "Będzieszyn III",
        "description": "14"
        }
    },

    {
      "type": "Feature",
      "geometry": {
        "type": "Point",
        "coordinates": [17.846737, 51.734363]
      },
      "properties": {
        "name": "Będzieszyn III",
        "description": "14"
        }
    },

    {
      "type": "Feature",
      "geometry": {
        "type": "Point",
        "coordinates": [17.538968, 51.676829]
      },
      "properties": {
        "name": "Biadki kościół",
        "description": "K-1"
        }
    },

    {
      "type": "Feature",
      "geometry": {
        "type": "Point",
        "coordinates": [17.539783, 51.676163]
      },
      "properties": {
        "name": "Biadki kościół",
        "description": "K-1"
        }
    },

    {
      "type": "Feature",
      "geometry": {
        "type": "Point",
        "coordinates": [17.550813, 51.673901]
      },
      "properties": {
        "name": "Biadki wieś",
        "description": "K-1"
        }
    },

    {
      "type": "Feature",
      "geometry": {
        "type": "Point",
        "coordinates": [17.550212, 51.674567]
      },
      "properties": {
        "name": "Biadki wieś",
        "description": "K-1"
        }
    },

    {
      "type": "Feature",
      "geometry": {
        "type": "Point",
        "coordinates": [17.547183, 51.676015]
      },
      "properties": {
        "name": "Biadki wieś - Wiejska",
        "description": "K-1"
        }
    },

    {
      "type": "Feature",
      "geometry": {
        "type": "Point",
        "coordinates": [17.759262, 51.758565]
      },
      "properties": {
        "name": "Bieganin",
        "description": "_5"
        }
    },

    {
      "type": "Feature",
      "geometry": {
        "type": "Point",
        "coordinates": [17.761236, 51.759256]
      },
      "properties": {
        "name": "Bieganin",
        "description": "_5"
        }
    },

    {
      "type": "Feature",
      "geometry": {
        "type": "Point",
        "coordinates": [17.759606, 51.764621]
      },
      "properties": {
        "name": "Bieganin I",
        "description": "_5"
        }
    },

    {
      "type": "Feature",
      "geometry": {
        "type": "Point",
        "coordinates": [17.76158, 51.763665]
      },
      "properties": {
        "name": "Bieganin I",
        "description": "_5"
        }
    },

    {
      "type": "Feature",
      "geometry": {
        "type": "Point",
        "coordinates": [17.968397, 51.66473]
      },
      "properties": {
        "name": "Bilczew",
        "description": "20"
        }
    },

    {
      "type": "Feature",
      "geometry": {
        "type": "Point",
        "coordinates": [17.968698, 51.664224]
      },
      "properties": {
        "name": "Bilczew",
        "description": "20"
        }
    },

    {
      "type": "Feature",
      "geometry": {
        "type": "Point",
        "coordinates": [17.793239, 51.743854]
      },
      "properties": {
        "name": "Biniew n.ż.",
        "description": "P"
        }
    },

    {
      "type": "Feature",
      "geometry": {
        "type": "Point",
        "coordinates": [17.793582, 51.743748]
      },
      "properties": {
        "name": "Biniew n.ż.",
        "description": "P"
        }
    },

    {
      "type": "Feature",
      "geometry": {
        "type": "Point",
        "coordinates": [17.798345, 51.744441]
      },
      "properties": {
        "name": "Biniew OSP",
        "description": "P"
        }
    },

    {
      "type": "Feature",
      "geometry": {
        "type": "Point",
        "coordinates": [17.798903, 51.743829]
      },
      "properties": {
        "name": "Biniew OSP",
        "description": "P"
        }
    },

    {
      "type": "Feature",
      "geometry": {
        "type": "Point",
        "coordinates": [17.794526, 51.741199]
      },
      "properties": {
        "name": "Biniew PKP",
        "description": "P"
        }
    },

    {
      "type": "Feature",
      "geometry": {
        "type": "Point",
        "coordinates": [17.794891, 51.741584]
      },
      "properties": {
        "name": "Biniew PKP",
        "description": "P"
        }
    },

    {
      "type": "Feature",
      "geometry": {
        "type": "Point",
        "coordinates": [17.93569, 51.675167]
      },
      "properties": {
        "name": "Biskupice",
        "description": "20"
        }
    },

    {
      "type": "Feature",
      "geometry": {
        "type": "Point",
        "coordinates": [17.942921, 51.679638]
      },
      "properties": {
        "name": "Biskupice cmentarz",
        "description": "20"
        }
    },

    {
      "type": "Feature",
      "geometry": {
        "type": "Point",
        "coordinates": [17.943737, 51.679851]
      },
      "properties": {
        "name": "Biskupice cmentarz",
        "description": "20"
        }
    },

    {
      "type": "Feature",
      "geometry": {
        "type": "Point",
        "coordinates": [17.925518, 51.687885]
      },
      "properties": {
        "name": "Biskupice Ociąż",
        "description": "20"
        }
    },

    {
      "type": "Feature",
      "geometry": {
        "type": "Point",
        "coordinates": [17.925679, 51.688071]
      },
      "properties": {
        "name": "Biskupice Ociąż",
        "description": "20"
        }
    },

    {
      "type": "Feature",
      "geometry": {
        "type": "Point",
        "coordinates": [17.945867, 51.674551]
      },
      "properties": {
        "name": "Biskupice Ołoboczne n.ż.",
        "description": "20"
        }
    },

    {
      "type": "Feature",
      "geometry": {
        "type": "Point",
        "coordinates": [17.945438, 51.674924]
      },
      "properties": {
        "name": "Biskupice Ołoboczne n.ż.",
        "description": "20"
        }
    },

    {
      "type": "Feature",
      "geometry": {
        "type": "Point",
        "coordinates": [17.942084, 51.674915]
      },
      "properties": {
        "name": "Biskupice sklep",
        "description": "20"
        }
    },

    {
      "type": "Feature",
      "geometry": {
        "type": "Point",
        "coordinates": [17.941999, 51.675141]
      },
      "properties": {
        "name": "Biskupice sklep",
        "description": "20"
        }
    },

    {
      "type": "Feature",
      "geometry": {
        "type": "Point",
        "coordinates": [17.93408, 51.686717]
      },
      "properties": {
        "name": "Biskupice SKR",
        "description": "20"
        }
    },

    {
      "type": "Feature",
      "geometry": {
        "type": "Point",
        "coordinates": [17.933909, 51.686503]
      },
      "properties": {
        "name": "Biskupice SKR",
        "description": "20"
        }
    },

    {
      "type": "Feature",
      "geometry": {
        "type": "Point",
        "coordinates": [17.818178, 51.774116]
      },
      "properties": {
        "name": "Borowiec",
        "description": "_5, P"
        }
    },

    {
      "type": "Feature",
      "geometry": {
        "type": "Point",
        "coordinates": [17.822898, 51.780807]
      },
      "properties": {
        "name": "Borowiec I",
        "description": "_5, P"
        }
    },

    {
      "type": "Feature",
      "geometry": {
        "type": "Point",
        "coordinates": [17.824701, 51.78086]
      },
      "properties": {
        "name": "Borowiec I",
        "description": "_5, P"
        }
    },

    {
      "type": "Feature",
      "geometry": {
        "type": "Point",
        "coordinates": [17.573129, 51.669563]
      },
      "properties": {
        "name": "Borowina - Leśniczówka",
        "description": "K-1"
        }
    },

    {
      "type": "Feature",
      "geometry": {
        "type": "Point",
        "coordinates": [17.572399, 51.670016]
      },
      "properties": {
        "name": "Borowina - Leśniczówka",
        "description": "K-1"
        }
    },

    {
      "type": "Feature",
      "geometry": {
        "type": "Point",
        "coordinates": [17.836369, 51.66187]
      },
      "properties": {
        "name": "Bracka I",
        "description": "11"
        }
    },

    {
      "type": "Feature",
      "geometry": {
        "type": "Point",
        "coordinates": [17.836873, 51.662063]
      },
      "properties": {
        "name": "Bracka I",
        "description": "11"
        }
    },

    {
      "type": "Feature",
      "geometry": {
        "type": "Point",
        "coordinates": [17.836299, 51.659238]
      },
      "properties": {
        "name": "Bracka II",
        "description": "11"
        }
    },

    {
      "type": "Feature",
      "geometry": {
        "type": "Point",
        "coordinates": [17.835681, 51.658248]
      },
      "properties": {
        "name": "Bracka II",
        "description": "11"
        }
    },

    {
      "type": "Feature",
      "geometry": {
        "type": "Point",
        "coordinates": [17.835292, 51.654458]
      },
      "properties": {
        "name": "Bracka III",
        "description": "11"
        }
    },

    {
      "type": "Feature",
      "geometry": {
        "type": "Point",
        "coordinates": [17.835125, 51.654532]
      },
      "properties": {
        "name": "Bracka III",
        "description": "11"
        }
    },

    {
      "type": "Feature",
      "geometry": {
        "type": "Point",
        "coordinates": [17.805373, 51.634886]
      },
      "properties": {
        "name": "Budowlanych",
        "description": "14, 22"
        }
    },

    {
      "type": "Feature",
      "geometry": {
        "type": "Point",
        "coordinates": [17.804869, 51.634773]
      },
      "properties": {
        "name": "Budowlanych",
        "description": "14, 22"
        }
    },

    {
      "type": "Feature",
      "geometry": {
        "type": "Point",
        "coordinates": [17.665084, 51.797889]
      },
      "properties": {
        "name": "Bugaj",
        "description": "_5B"
        }
    },

    {
      "type": "Feature",
      "geometry": {
        "type": "Point",
        "coordinates": [17.624436, 51.679613]
      },
      "properties": {
        "name": "Cegły",
        "description": "15"
        }
    },

    {
      "type": "Feature",
      "geometry": {
        "type": "Point",
        "coordinates": [17.617183, 51.677192]
      },
      "properties": {
        "name": "Cegły n.ż.",
        "description": "15"
        }
    },

    {
      "type": "Feature",
      "geometry": {
        "type": "Point",
        "coordinates": [17.618213, 51.676739]
      },
      "properties": {
        "name": "Cegły n.ż.",
        "description": "15"
        }
    },

    {
      "type": "Feature",
      "geometry": {
        "type": "Point",
        "coordinates": [17.807008, 51.651711]
      },
      "properties": {
        "name": "Centrum przesiadkowe",
        "description": "_1, _6, _7, _9, 10, 11, 12, 13, 16, 18, 25, K-1, P"
        }
    },

    {
      "type": "Feature",
      "geometry": {
        "type": "Point",
        "coordinates": [17.807164, 51.651379]
      },
      "properties": {
        "name": "Centrum przesiadkowe",
        "description": "_5B, 14, 19E, C, K-1, M, P"
        }
    },

    {
      "type": "Feature",
      "geometry": {
        "type": "Point",
        "coordinates": [17.807143, 51.651548]
      },
      "properties": {
        "name": "Centrum przesiadkowe",
        "description": "_1, _4, _5, _5B, _6, _7, _8, _9, 10, 12, 13, 14, 15, 16, 18, 19E, 20, 21, C, K-1, M"
        }
    },

    {
      "type": "Feature",
      "geometry": {
        "type": "Point",
        "coordinates": [17.781761, 51.643553]
      },
      "properties": {
        "name": "Chłapowskiego I",
        "description": "10, 22"
        }
    },

    {
      "type": "Feature",
      "geometry": {
        "type": "Point",
        "coordinates": [17.782125, 51.643366]
      },
      "properties": {
        "name": "Chłapowskiego I",
        "description": "10, 22"
        }
    },

    {
      "type": "Feature",
      "geometry": {
        "type": "Point",
        "coordinates": [17.785152, 51.650784]
      },
      "properties": {
        "name": "Chłapowskiego II",
        "description": "25"
        }
    },

    {
      "type": "Feature",
      "geometry": {
        "type": "Point",
        "coordinates": [17.784399, 51.650055]
      },
      "properties": {
        "name": "Chłapowskiego II",
        "description": "25"
        }
    },

    {
      "type": "Feature",
      "geometry": {
        "type": "Point",
        "coordinates": [17.783031, 51.646339]
      },
      "properties": {
        "name": "Chłapowskiego Urząd Skarbowy",
        "description": "10, 22"
        }
    },

    {
      "type": "Feature",
      "geometry": {
        "type": "Point",
        "coordinates": [18.081088, 51.76216]
      },
      "properties": {
        "name": "Chopina",
        "description": "19E, M"
        }
    },

    {
      "type": "Feature",
      "geometry": {
        "type": "Point",
        "coordinates": [18.081303, 51.76228]
      },
      "properties": {
        "name": "Chopina",
        "description": "19E, M"
        }
    },

    {
      "type": "Feature",
      "geometry": {
        "type": "Point",
        "coordinates": [17.59388, 51.645007]
      },
      "properties": {
        "name": "Chruszczyny",
        "description": "15"
        }
    },

    {
      "type": "Feature",
      "geometry": {
        "type": "Point",
        "coordinates": [17.877843, 51.677531]
      },
      "properties": {
        "name": "Czekanów",
        "description": "19E, 20, 21, M"
        }
    },

    {
      "type": "Feature",
      "geometry": {
        "type": "Point",
        "coordinates": [17.876402, 51.677326]
      },
      "properties": {
        "name": "Czekanów",
        "description": "19E, 20, 21, M"
        }
    },

    {
      "type": "Feature",
      "geometry": {
        "type": "Point",
        "coordinates": [17.870533, 51.678432]
      },
      "properties": {
        "name": "Czekanów dworzec",
        "description": "14"
        }
    },

    {
      "type": "Feature",
      "geometry": {
        "type": "Point",
        "coordinates": [17.868301, 51.678751]
      },
      "properties": {
        "name": "Czekanów dworzec",
        "description": "14"
        }
    },

    {
      "type": "Feature",
      "geometry": {
        "type": "Point",
        "coordinates": [17.645484, 51.656227]
      },
      "properties": {
        "name": "Daniszyn Ośrodek Zdrowia",
        "description": "15, K-1"
        }
    },

    {
      "type": "Feature",
      "geometry": {
        "type": "Point",
        "coordinates": [17.62879, 51.655321]
      },
      "properties": {
        "name": "Daniszyn SKR n.ż.",
        "description": "15, K-1"
        }
    },

    {
      "type": "Feature",
      "geometry": {
        "type": "Point",
        "coordinates": [17.629391, 51.655002]
      },
      "properties": {
        "name": "Daniszyn SKR n.ż.",
        "description": "15, K-1"
        }
    },

    {
      "type": "Feature",
      "geometry": {
        "type": "Point",
        "coordinates": [17.635957, 51.655295]
      },
      "properties": {
        "name": "Daniszyn wieś",
        "description": "15, K-1"
        }
    },

    {
      "type": "Feature",
      "geometry": {
        "type": "Point",
        "coordinates": [17.636429, 51.654922]
      },
      "properties": {
        "name": "Daniszyn wieś",
        "description": "15, K-1"
        }
    },

    {
      "type": "Feature",
      "geometry": {
        "type": "Point",
        "coordinates": [17.786389, 51.636195]
      },
      "properties": {
        "name": "Długa I",
        "description": "22"
        }
    },

    {
      "type": "Feature",
      "geometry": {
        "type": "Point",
        "coordinates": [17.791949, 51.632745]
      },
      "properties": {
        "name": "Długa II",
        "description": "22"
        }
    },

    {
      "type": "Feature",
      "geometry": {
        "type": "Point",
        "coordinates": [17.791729, 51.632725]
      },
      "properties": {
        "name": "Długa II",
        "description": "22"
        }
    },

    {
      "type": "Feature",
      "geometry": {
        "type": "Point",
        "coordinates": [17.79887, 51.86243]
      },
      "properties": {
        "name": "Dobra Nadzieja",
        "description": "P"
        }
    },

    {
      "type": "Feature",
      "geometry": {
        "type": "Point",
        "coordinates": [17.799514, 51.862721]
      },
      "properties": {
        "name": "Dobra Nadzieja",
        "description": "P"
        }
    },

    {
      "type": "Feature",
      "geometry": {
        "type": "Point",
        "coordinates": [17.671436, 51.732273]
      },
      "properties": {
        "name": "Drogosław",
        "description": "_5"
        }
    },

    {
      "type": "Feature",
      "geometry": {
        "type": "Point",
        "coordinates": [17.935867430258853, 51.749669857482374]
      },
      "properties": {
        "name": "Droszew",
        "description": "21"
        }
    },

    {
      "type": "Feature",
      "geometry": {
        "type": "Point",
        "coordinates": [17.93663990645514, 51.74988240757544]
      },
      "properties": {
        "name": "Droszew",
        "description": "21"
        }
    },

    {
      "type": "Feature",
      "geometry": {
        "type": "Point",
        "coordinates": [17.934322477866274, 51.75583340410853]
      },
      "properties": {
        "name": "Droszew cmentarz",
        "description": "21"
        }
    },

    {
      "type": "Feature",
      "geometry": {
        "type": "Point",
        "coordinates": [17.93389332442389, 51.75625844528468]
      },
      "properties": {
        "name": "Droszew cmentarz",
        "description": "21"
        }
    },

    {
      "type": "Feature",
      "geometry": {
        "type": "Point",
        "coordinates": [17.772539, 51.643942]
      },
      "properties": {
        "name": "Dwernickiego",
        "description": "_1, 10"
        }
    },

    {
      "type": "Feature",
      "geometry": {
        "type": "Point",
        "coordinates": [17.902974457011815, 51.68478910240691]
      },
      "properties": {
        "name": "Fabianów",
        "description": "21"
        }
    },

    {
      "type": "Feature",
      "geometry": {
        "type": "Point",
        "coordinates": [17.900499, 51.683151]
      },
      "properties": {
        "name": "Fabianów",
        "description": "19E, 20, 21, M"
        }
    },

    {
      "type": "Feature",
      "geometry": {
        "type": "Point",
        "coordinates": [17.903932, 51.68367]
      },
      "properties": {
        "name": "Fabianów",
        "description": "19E, 20, M"
        }
    },

    {
      "type": "Feature",
      "geometry": {
        "type": "Point",
        "coordinates": [17.924382, 51.707092]
      },
      "properties": {
        "name": "Fabianów I",
        "description": "14, 21"
        }
    },

    {
      "type": "Feature",
      "geometry": {
        "type": "Point",
        "coordinates": [17.924639, 51.706772]
      },
      "properties": {
        "name": "Fabianów I",
        "description": "14, 21"
        }
    },

    {
      "type": "Feature",
      "geometry": {
        "type": "Point",
        "coordinates": [17.915498, 51.70773]
      },
      "properties": {
        "name": "Fabianów II",
        "description": "14, 21"
        }
    },

    {
      "type": "Feature",
      "geometry": {
        "type": "Point",
        "coordinates": [17.915884, 51.707384]
      },
      "properties": {
        "name": "Fabianów II",
        "description": "14, 21"
        }
    },

    {
      "type": "Feature",
      "geometry": {
        "type": "Point",
        "coordinates": [17.912658238463333, 51.69702665462182]
      },
      "properties": {
        "name": "Fabianów wieś I",
        "description": "21"
        }
    },

    {
      "type": "Feature",
      "geometry": {
        "type": "Point",
        "coordinates": [17.91394569879048, 51.69676065605785]
      },
      "properties": {
        "name": "Fabianów wieś I",
        "description": "21"
        }
    },

    {
      "type": "Feature",
      "geometry": {
        "type": "Point",
        "coordinates": [17.811772, 51.693593]
      },
      "properties": {
        "name": "Franklinów",
        "description": "14, P"
        }
    },

    {
      "type": "Feature",
      "geometry": {
        "type": "Point",
        "coordinates": [17.812437, 51.694245]
      },
      "properties": {
        "name": "Franklinów",
        "description": "P"
        }
    },

    {
      "type": "Feature",
      "geometry": {
        "type": "Point",
        "coordinates": [17.808365, 51.686458]
      },
      "properties": {
        "name": "Franklinów I",
        "description": "P"
        }
    },

    {
      "type": "Feature",
      "geometry": {
        "type": "Point",
        "coordinates": [17.807097, 51.684537]
      },
      "properties": {
        "name": "Franklinów I",
        "description": "14, P"
        }
    },

    {
      "type": "Feature",
      "geometry": {
        "type": "Point",
        "coordinates": [17.844302, 51.656464]
      },
      "properties": {
        "name": "Galeria Ostrovia - Ofierskiego",
        "description": "_6, 19E, 20, 25, C, M"
        }
    },

    {
      "type": "Feature",
      "geometry": {
        "type": "Point",
        "coordinates": [17.844345, 51.657396]
      },
      "properties": {
        "name": "Galeria Ostrovia -Serwańskiego",
        "description": "_6, 19E, 20, 25, C, M"
        }
    },

    {
      "type": "Feature",
      "geometry": {
        "type": "Point",
        "coordinates": [17.913808943320376, 51.76392178259445]
      },
      "properties": {
        "name": "Gałązki Wielkie",
        "description": "21"
        }
    },

    {
      "type": "Feature",
      "geometry": {
        "type": "Point",
        "coordinates": [17.914066435385806, 51.76360305618712]
      },
      "properties": {
        "name": "Gałązki Wielkie",
        "description": "21"
        }
    },

    {
      "type": "Feature",
      "geometry": {
        "type": "Point",
        "coordinates": [17.81775, 51.64811]
      },
      "properties": {
        "name": "Gimnazjalna",
        "description": "_2, _5, _5B, _6, _8, 13, 18, K-1"
        }
    },

    {
      "type": "Feature",
      "geometry": {
        "type": "Point",
        "coordinates": [17.718214, 51.742757]
      },
      "properties": {
        "name": "Głogowa",
        "description": "_5B"
        }
    },

    {
      "type": "Feature",
      "geometry": {
        "type": "Point",
        "coordinates": [17.717312, 51.741296]
      },
      "properties": {
        "name": "Głogowa",
        "description": "_5B"
        }
    },

    {
      "type": "Feature",
      "geometry": {
        "type": "Point",
        "coordinates": [17.715338, 51.747992]
      },
      "properties": {
        "name": "Głogowa II",
        "description": "_5B"
        }
    },

    {
      "type": "Feature",
      "geometry": {
        "type": "Point",
        "coordinates": [17.716282, 51.747779]
      },
      "properties": {
        "name": "Głogowa II",
        "description": "_5B"
        }
    },

    {
      "type": "Feature",
      "geometry": {
        "type": "Point",
        "coordinates": [17.813154, 51.645045]
      },
      "properties": {
        "name": "Głogowska",
        "description": "_1, _2, _4, _5, _5B, _6, _7, _8, 12, 13, 14, 15, 18, 19E, 20, 21, C, K-1, M"
        }
    },

    {
      "type": "Feature",
      "geometry": {
        "type": "Point",
        "coordinates": [17.721277, 51.640176]
      },
      "properties": {
        "name": "Gorzyce Wielkie",
        "description": "11"
        }
    },

    {
      "type": "Feature",
      "geometry": {
        "type": "Point",
        "coordinates": [17.756585, 51.639044]
      },
      "properties": {
        "name": "Gorzyce Wielkie I",
        "description": "11, 22"
        }
    },

    {
      "type": "Feature",
      "geometry": {
        "type": "Point",
        "coordinates": [17.758152, 51.639443]
      },
      "properties": {
        "name": "Gorzyce Wielkie I",
        "description": "11, 22"
        }
    },

    {
      "type": "Feature",
      "geometry": {
        "type": "Point",
        "coordinates": [17.747772, 51.638135]
      },
      "properties": {
        "name": "Gorzyce Wielkie II n.ż.",
        "description": "11, 22"
        }
    },

    {
      "type": "Feature",
      "geometry": {
        "type": "Point",
        "coordinates": [17.748287, 51.638002]
      },
      "properties": {
        "name": "Gorzyce Wielkie II n.ż.",
        "description": "11, 22"
        }
    },

    {
      "type": "Feature",
      "geometry": {
        "type": "Point",
        "coordinates": [17.738545, 51.637403]
      },
      "properties": {
        "name": "Gorzyce Wielkie III",
        "description": "11, 22"
        }
    },

    {
      "type": "Feature",
      "geometry": {
        "type": "Point",
        "coordinates": [17.739081, 51.637216]
      },
      "properties": {
        "name": "Gorzyce Wielkie III",
        "description": "11, 22"
        }
    },

    {
      "type": "Feature",
      "geometry": {
        "type": "Point",
        "coordinates": [17.729924, 51.63672]
      },
      "properties": {
        "name": "Gorzyce Wielkie kościół",
        "description": "11, 22"
        }
    },

    {
      "type": "Feature",
      "geometry": {
        "type": "Point",
        "coordinates": [17.729195, 51.636833]
      },
      "properties": {
        "name": "Gorzyce Wielkie kościół",
        "description": "11"
        }
    },

    {
      "type": "Feature",
      "geometry": {
        "type": "Point",
        "coordinates": [17.720665, 51.636887]
      },
      "properties": {
        "name": "Gorzyce Wielkie V n.ż.",
        "description": "11"
        }
    },

    {
      "type": "Feature",
      "geometry": {
        "type": "Point",
        "coordinates": [17.72147, 51.636726]
      },
      "properties": {
        "name": "Gorzyce Wielkie V n.ż.",
        "description": "11"
        }
    },

    {
      "type": "Feature",
      "geometry": {
        "type": "Point",
        "coordinates": [17.787084, 51.641059]
      },
      "properties": {
        "name": "Gorzycka",
        "description": "11, 22"
        }
    },

    {
      "type": "Feature",
      "geometry": {
        "type": "Point",
        "coordinates": [17.786192, 51.641524]
      },
      "properties": {
        "name": "Gorzycka",
        "description": "11, 22"
        }
    },

    {
      "type": "Feature",
      "geometry": {
        "type": "Point",
        "coordinates": [17.790294, 51.642362]
      },
      "properties": {
        "name": "Gorzycka piekarnia",
        "description": "11"
        }
    },

    {
      "type": "Feature",
      "geometry": {
        "type": "Point",
        "coordinates": [17.780441, 51.640832]
      },
      "properties": {
        "name": "Gorzycka Długa",
        "description": "11, 22"
        }
    },

    {
      "type": "Feature",
      "geometry": {
        "type": "Point",
        "coordinates": [17.78028, 51.640519]
      },
      "properties": {
        "name": "Gorzycka Długa",
        "description": "11, 22"
        }
    },

    {
      "type": "Feature",
      "geometry": {
        "type": "Point",
        "coordinates": [17.797383, 51.642372]
      },
      "properties": {
        "name": "Gorzycka Odolanowska",
        "description": "11"
        }
    },

    {
      "type": "Feature",
      "geometry": {
        "type": "Point",
        "coordinates": [17.797288, 51.642244]
      },
      "properties": {
        "name": "Gorzycka Odolanowska",
        "description": "11"
        }
    },

    {
      "type": "Feature",
      "geometry": {
        "type": "Point",
        "coordinates": [17.790015, 51.642492]
      },
      "properties": {
        "name": "Gorzycka piekarnia",
        "description": "11"
        }
    },

    {
      "type": "Feature",
      "geometry": {
        "type": "Point",
        "coordinates": [17.774578, 51.639597]
      },
      "properties": {
        "name": "Gorzycka Swobodna",
        "description": "11, 22"
        }
    },

    {
      "type": "Feature",
      "geometry": {
        "type": "Point",
        "coordinates": [17.775758, 51.639756]
      },
      "properties": {
        "name": "Gorzycka Swobodna",
        "description": "11, 22"
        }
    },

    {
      "type": "Feature",
      "geometry": {
        "type": "Point",
        "coordinates": [17.764793, 51.639244]
      },
      "properties": {
        "name": "Gorzycka Topolowa",
        "description": "11, 22"
        }
    },

    {
      "type": "Feature",
      "geometry": {
        "type": "Point",
        "coordinates": [17.762185, 51.639297]
      },
      "properties": {
        "name": "Gorzycka Topolowa",
        "description": "11, 22"
        }
    },

    {
      "type": "Feature",
      "geometry": {
        "type": "Point",
        "coordinates": [17.770062, 51.638768]
      },
      "properties": {
        "name": "Gorzycka V",
        "description": "11, 22"
        }
    },

    {
      "type": "Feature",
      "geometry": {
        "type": "Point",
        "coordinates": [17.769118, 51.639008]
      },
      "properties": {
        "name": "Gorzycka V",
        "description": "11, 22"
        }
    },

    {
      "type": "Feature",
      "geometry": {
        "type": "Point",
        "coordinates": [18.076259, 51.676499]
      },
      "properties": {
        "name": "Gostyczyna poczta",
        "description": "20"
        }
    },

    {
      "type": "Feature",
      "geometry": {
        "type": "Point",
        "coordinates": [18.075771, 51.676654]
      },
      "properties": {
        "name": "Gostyczyna poczta",
        "description": "20"
        }
    },

    {
      "type": "Feature",
      "geometry": {
        "type": "Point",
        "coordinates": [18.080235, 51.674471]
      },
      "properties": {
        "name": "Gostyczyna skrzyżowanie",
        "description": "20"
        }
    },

    {
      "type": "Feature",
      "geometry": {
        "type": "Point",
        "coordinates": [18.079649, 51.675194]
      },
      "properties": {
        "name": "Gostyczyna skrzyżowanie",
        "description": "20"
        }
    },

    {
      "type": "Feature",
      "geometry": {
        "type": "Point",
        "coordinates": [18.068619, 51.744934]
      },
      "properties": {
        "name": "Górnośląska Galeria AMBER",
        "description": "19E, M"
        }
    },

    {
      "type": "Feature",
      "geometry": {
        "type": "Point",
        "coordinates": [18.068815, 51.744857]
      },
      "properties": {
        "name": "Górnośląska Galeria AMBER",
        "description": "19E, M"
        }
    },

    {
      "type": "Feature",
      "geometry": {
        "type": "Point",
        "coordinates": [18.077843, 51.752755]
      },
      "properties": {
        "name": "Górnośląska Polna",
        "description": "19E, M"
        }
    },

    {
      "type": "Feature",
      "geometry": {
        "type": "Point",
        "coordinates": [18.077516, 51.752048]
      },
      "properties": {
        "name": "Górnośląska Polna",
        "description": "19E, M"
        }
    },

    {
      "type": "Feature",
      "geometry": {
        "type": "Point",
        "coordinates": [18.082295, 51.757967]
      },
      "properties": {
        "name": "Górnośląska Rogatka",
        "description": "19E, M"
        }
    },

    {
      "type": "Feature",
      "geometry": {
        "type": "Point",
        "coordinates": [18.082754, 51.756937]
      },
      "properties": {
        "name": "Górnośląska Rogatka",
        "description": "19E, M"
        }
    },

    {
      "type": "Feature",
      "geometry": {
        "type": "Point",
        "coordinates": [17.830038, 51.742922]
      },
      "properties": {
        "name": "Górzno CPN",
        "description": "P"
        }
    },

    {
      "type": "Feature",
      "geometry": {
        "type": "Point",
        "coordinates": [17.829399, 51.741262]
      },
      "properties": {
        "name": "Górzno I",
        "description": "P"
        }
    },

    {
      "type": "Feature",
      "geometry": {
        "type": "Point",
        "coordinates": [17.833519, 51.743016]
      },
      "properties": {
        "name": "Górzno I",
        "description": "P"
        }
    },

    {
      "type": "Feature",
      "geometry": {
        "type": "Point",
        "coordinates": [17.837897, 51.749127]
      },
      "properties": {
        "name": "Górzno II",
        "description": "P"
        }
    },

    {
      "type": "Feature",
      "geometry": {
        "type": "Point",
        "coordinates": [17.835064, 51.747799]
      },
      "properties": {
        "name": "Górzno II",
        "description": "P"
        }
    },

    {
      "type": "Feature",
      "geometry": {
        "type": "Point",
        "coordinates": [17.828064, 51.742487]
      },
      "properties": {
        "name": "Górzno Ośrodek Zdrowia",
        "description": "P"
        }
    },

    {
      "type": "Feature",
      "geometry": {
        "type": "Point",
        "coordinates": [17.827549, 51.743046]
      },
      "properties": {
        "name": "Górzno Ośrodek Zdrowia",
        "description": "P"
        }
    },

    {
      "type": "Feature",
      "geometry": {
        "type": "Point",
        "coordinates": [17.85506, 51.646024]
      },
      "properties": {
        "name": "Grabowska - Jastrzębia",
        "description": "_2, _6, _9, 18"
        }
    },

    {
      "type": "Feature",
      "geometry": {
        "type": "Point",
        "coordinates": [17.844798, 51.648691]
      },
      "properties": {
        "name": "Grabowska Piaskowa",
        "description": "_2, _6, _9, 18"
        }
    },

    {
      "type": "Feature",
      "geometry": {
        "type": "Point",
        "coordinates": [17.844278, 51.648477]
      },
      "properties": {
        "name": "Grabowska Piaskowa",
        "description": "_2, _6, _9, 18"
        }
    },

    {
      "type": "Feature",
      "geometry": {
        "type": "Point",
        "coordinates": [17.859674, 51.644483]
      },
      "properties": {
        "name": "Grabowska Pruślin I",
        "description": "_2, _6, _9, 18"
        }
    },

    {
      "type": "Feature",
      "geometry": {
        "type": "Point",
        "coordinates": [17.859668, 51.644862]
      },
      "properties": {
        "name": "Grabowska Pruślin I",
        "description": "_2, _6, _9, 18"
        }
    },

    {
      "type": "Feature",
      "geometry": {
        "type": "Point",
        "coordinates": [17.850827, 51.647155]
      },
      "properties": {
        "name": "Grabowska Pruślińska",
        "description": "_2, _6, _9, 18"
        }
    },

    {
      "type": "Feature",
      "geometry": {
        "type": "Point",
        "coordinates": [17.849899, 51.647712]
      },
      "properties": {
        "name": "Grabowska Pruślińska",
        "description": "_2, _6, _9, 18"
        }
    },

    {
      "type": "Feature",
      "geometry": {
        "type": "Point",
        "coordinates": [17.830362, 51.650171]
      },
      "properties": {
        "name": "Grabowska szkoła",
        "description": "_2, _6, _9, 11, 18, 25"
        }
    },

    {
      "type": "Feature",
      "geometry": {
        "type": "Point",
        "coordinates": [17.830051, 51.649909]
      },
      "properties": {
        "name": "Grabowska szkoła",
        "description": "_2, _5, _5B, _6, _9, 11, 18, 25"
        }
    },

    {
      "type": "Feature",
      "geometry": {
        "type": "Point",
        "coordinates": [17.838157, 51.649299]
      },
      "properties": {
        "name": "Grabowska Witosa",
        "description": "_2, _6, _9, 18"
        }
    },

    {
      "type": "Feature",
      "geometry": {
        "type": "Point",
        "coordinates": [17.836778, 51.649755]
      },
      "properties": {
        "name": "Grabowska Witosa",
        "description": "_2, _6, _9, 11, 18, 25"
        }
    },

    {
      "type": "Feature",
      "geometry": {
        "type": "Point",
        "coordinates": [17.794569, 51.626761]
      },
      "properties": {
        "name": "Graniczna",
        "description": "14, 22"
        }
    },

    {
      "type": "Feature",
      "geometry": {
        "type": "Point",
        "coordinates": [17.800646, 51.782422]
      },
      "properties": {
        "name": "Grudzielec",
        "description": "_5"
        }
    },

    {
      "type": "Feature",
      "geometry": {
        "type": "Point",
        "coordinates": [17.800503, 51.783528]
      },
      "properties": {
        "name": "Grudzielec ",
        "description": "_5"
        }
    },

    {
      "type": "Feature",
      "geometry": {
        "type": "Point",
        "coordinates": [17.788616, 51.782041]
      },
      "properties": {
        "name": "Grudzielec I",
        "description": "_5"
        }
    },

    {
      "type": "Feature",
      "geometry": {
        "type": "Point",
        "coordinates": [17.787586, 51.783156]
      },
      "properties": {
        "name": "Grudzielec I",
        "description": "_5"
        }
    },

    {
      "type": "Feature",
      "geometry": {
        "type": "Point",
        "coordinates": [17.763811, 51.773279]
      },
      "properties": {
        "name": "Grudzielec Nowy",
        "description": "_5"
        }
    },

    {
      "type": "Feature",
      "geometry": {
        "type": "Point",
        "coordinates": [17.765699, 51.772111]
      },
      "properties": {
        "name": "Grudzielec Nowy",
        "description": "_5"
        }
    },

    {
      "type": "Feature",
      "geometry": {
        "type": "Point",
        "coordinates": [17.772051, 51.779227]
      },
      "properties": {
        "name": "Grudzielec Nowy I",
        "description": "_5"
        }
    },

    {
      "type": "Feature",
      "geometry": {
        "type": "Point",
        "coordinates": [17.770506, 51.780342]
      },
      "properties": {
        "name": "Grudzielec Nowy I",
        "description": "_5"
        }
    },

    {
      "type": "Feature",
      "geometry": {
        "type": "Point",
        "coordinates": [17.780047, 51.782205]
      },
      "properties": {
        "name": "Grudzielec Nowy II",
        "description": "_5"
        }
    },

    {
      "type": "Feature",
      "geometry": {
        "type": "Point",
        "coordinates": [17.781248, 51.781355]
      },
      "properties": {
        "name": "Grudzielec Nowy II",
        "description": "_5"
        }
    },

    {
      "type": "Feature",
      "geometry": {
        "type": "Point",
        "coordinates": [17.827067, 51.662686]
      },
      "properties": {
        "name": "Grunwaldzka I",
        "description": "11"
        }
    },

    {
      "type": "Feature",
      "geometry": {
        "type": "Point",
        "coordinates": [17.826519, 51.663026]
      },
      "properties": {
        "name": "Grunwaldzka I",
        "description": "11"
        }
    },

    {
      "type": "Feature",
      "geometry": {
        "type": "Point",
        "coordinates": [17.834696, 51.662979]
      },
      "properties": {
        "name": "Grunwaldzka II",
        "description": "11"
        }
    },

    {
      "type": "Feature",
      "geometry": {
        "type": "Point",
        "coordinates": [17.83484, 51.662482]
      },
      "properties": {
        "name": "Grunwaldzka II",
        "description": "11"
        }
    },

    {
      "type": "Feature",
      "geometry": {
        "type": "Point",
        "coordinates": [17.869692, 51.76298]
      },
      "properties": {
        "name": "Gutów I",
        "description": "P"
        }
    },

    {
      "type": "Feature",
      "geometry": {
        "type": "Point",
        "coordinates": [17.870036, 51.763193]
      },
      "properties": {
        "name": "Gutów I",
        "description": "P"
        }
    },

    {
      "type": "Feature",
      "geometry": {
        "type": "Point",
        "coordinates": [17.875357, 51.752621]
      },
      "properties": {
        "name": "Gutów II pętla",
        "description": "P"
        }
    },

    {
      "type": "Feature",
      "geometry": {
        "type": "Point",
        "coordinates": [17.874632, 51.752645]
      },
      "properties": {
        "name": "Gutów pętla",
        "description": "14"
        }
    },

    {
      "type": "Feature",
      "geometry": {
        "type": "Point",
        "coordinates": [17.789826, 51.621041]
      },
      "properties": {
        "name": "Gwarna",
        "description": "14"
        }
    },

    {
      "type": "Feature",
      "geometry": {
        "type": "Point",
        "coordinates": [17.790191, 51.621167]
      },
      "properties": {
        "name": "Gwarna",
        "description": "14"
        }
    },

    {
      "type": "Feature",
      "geometry": {
        "type": "Point",
        "coordinates": [17.833785, 51.840016]
      },
      "properties": {
        "name": "Janków",
        "description": "P"
        }
    },

    {
      "type": "Feature",
      "geometry": {
        "type": "Point",
        "coordinates": [17.833903, 51.840499]
      },
      "properties": {
        "name": "Janków",
        "description": "P"
        }
    },

    {
      "type": "Feature",
      "geometry": {
        "type": "Point",
        "coordinates": [17.809876, 51.610442]
      },
      "properties": {
        "name": "Janków Dw.PKP",
        "description": "13"
        }
    },

    {
      "type": "Feature",
      "geometry": {
        "type": "Point",
        "coordinates": [17.809377, 51.607634]
      },
      "properties": {
        "name": "Janków Dw.PKP",
        "description": "_1"
        }
    },

    {
      "type": "Feature",
      "geometry": {
        "type": "Point",
        "coordinates": [17.8052, 51.605489]
      },
      "properties": {
        "name": "Janków Przyg. Sp. Chem. II",
        "description": "_1"
        }
    },

    {
      "type": "Feature",
      "geometry": {
        "type": "Point",
        "coordinates": [17.805758, 51.605249]
      },
      "properties": {
        "name": "Janków Przyg. Sp. Chem. II",
        "description": "_1"
        }
    },

    {
      "type": "Feature",
      "geometry": {
        "type": "Point",
        "coordinates": [17.796359, 51.600584]
      },
      "properties": {
        "name": "Janków Przygodzki cmentarz",
        "description": "_1"
        }
    },

    {
      "type": "Feature",
      "geometry": {
        "type": "Point",
        "coordinates": [17.797089, 51.600531]
      },
      "properties": {
        "name": "Janków Przygodzki cmentarz",
        "description": "_1"
        }
    },

    {
      "type": "Feature",
      "geometry": {
        "type": "Point",
        "coordinates": [17.792411, 51.598532]
      },
      "properties": {
        "name": "Janków Przygodzki kościół",
        "description": "_1"
        }
    },

    {
      "type": "Feature",
      "geometry": {
        "type": "Point",
        "coordinates": [17.793141, 51.598212]
      },
      "properties": {
        "name": "Janków Przygodzki kościół",
        "description": "_1"
        }
    },

    {
      "type": "Feature",
      "geometry": {
        "type": "Point",
        "coordinates": [17.802024, 51.60317]
      },
      "properties": {
        "name": "Janków Przygodzki Sp. Chem.",
        "description": "_1"
        }
    },

    {
      "type": "Feature",
      "geometry": {
        "type": "Point",
        "coordinates": [17.801338, 51.603463]
      },
      "properties": {
        "name": "Janków Przygodzki Sp. Chem.",
        "description": "_1"
        }
    },

    {
      "type": "Feature",
      "geometry": {
        "type": "Point",
        "coordinates": [17.79121, 51.596559]
      },
      "properties": {
        "name": "Janków Przygodzki szkoła",
        "description": "_2, 12, 16"
        }
    },

    {
      "type": "Feature",
      "geometry": {
        "type": "Point",
        "coordinates": [17.791639, 51.596906]
      },
      "properties": {
        "name": "Janków Przygodzki szkoła",
        "description": "_2, 12, 16"
        }
    },

    {
      "type": "Feature",
      "geometry": {
        "type": "Point",
        "coordinates": [17.78344, 51.597043]
      },
      "properties": {
        "name": "Janków Przygodzki wieś",
        "description": "_1, _2, 12, 16"
        }
    },

    {
      "type": "Feature",
      "geometry": {
        "type": "Point",
        "coordinates": [17.782903, 51.596776]
      },
      "properties": {
        "name": "Janków Przygodzki wieś",
        "description": "_1, _2, 12, 16"
        }
    },

    {
      "type": "Feature",
      "geometry": {
        "type": "Point",
        "coordinates": [17.643305, 51.69909]
      },
      "properties": {
        "name": "Janków Zaleśny",
        "description": "_5"
        }
    },

    {
      "type": "Feature",
      "geometry": {
        "type": "Point",
        "coordinates": [17.643047, 51.692759]
      },
      "properties": {
        "name": "Janków Zaleśny sklep",
        "description": "_5"
        }
    },

    {
      "type": "Feature",
      "geometry": {
        "type": "Point",
        "coordinates": [17.644421, 51.692759]
      },
      "properties": {
        "name": "Janków Zaleśny sklep",
        "description": "_5"
        }
    },

    {
      "type": "Feature",
      "geometry": {
        "type": "Point",
        "coordinates": [17.737279, 51.690754]
      },
      "properties": {
        "name": "Jaskółki n.ż.",
        "description": "_5"
        }
    },

    {
      "type": "Feature",
      "geometry": {
        "type": "Point",
        "coordinates": [17.736378, 51.690541]
      },
      "properties": {
        "name": "Jaskółki n.ż.",
        "description": "_5"
        }
    },

    {
      "type": "Feature",
      "geometry": {
        "type": "Point",
        "coordinates": [17.759766, 51.681285]
      },
      "properties": {
        "name": "Jaskółki PKS",
        "description": "_5, _5B"
        }
    },

    {
      "type": "Feature",
      "geometry": {
        "type": "Point",
        "coordinates": [17.760625, 51.681512]
      },
      "properties": {
        "name": "Jaskółki PKS",
        "description": "_5, _5B"
        }
    },

    {
      "type": "Feature",
      "geometry": {
        "type": "Point",
        "coordinates": [17.736721, 51.687189]
      },
      "properties": {
        "name": "Jaskółki wieś",
        "description": "_5"
        }
    },

    {
      "type": "Feature",
      "geometry": {
        "type": "Point",
        "coordinates": [17.737665, 51.686684]
      },
      "properties": {
        "name": "Jaskółki wieś",
        "description": "_5"
        }
    },

    {
      "type": "Feature",
      "geometry": {
        "type": "Point",
        "coordinates": [17.761129, 51.687388]
      },
      "properties": {
        "name": "Jelitów",
        "description": "_5"
        }
    },

    {
      "type": "Feature",
      "geometry": {
        "type": "Point",
        "coordinates": [17.761494, 51.687176]
      },
      "properties": {
        "name": "Jelitów",
        "description": "_5"
        }
    },

    {
      "type": "Feature",
      "geometry": {
        "type": "Point",
        "coordinates": [17.699503, 51.725947]
      },
      "properties": {
        "name": "Józefów",
        "description": "_5"
        }
    },

    {
      "type": "Feature",
      "geometry": {
        "type": "Point",
        "coordinates": [17.700404, 51.726824]
      },
      "properties": {
        "name": "Józefów",
        "description": "_5"
        }
    },

    {
      "type": "Feature",
      "geometry": {
        "type": "Point",
        "coordinates": [17.682766, 51.729721]
      },
      "properties": {
        "name": "Józefów I",
        "description": "_5"
        }
    },

    {
      "type": "Feature",
      "geometry": {
        "type": "Point",
        "coordinates": [17.683881, 51.730386]
      },
      "properties": {
        "name": "Józefów I",
        "description": "_5"
        }
    },

    {
      "type": "Feature",
      "geometry": {
        "type": "Point",
        "coordinates": [17.822165, 51.650231]
      },
      "properties": {
        "name": "Kaliska Bank",
        "description": "_2, _5, _5B, _6, _8, 10, 13, 18, 25"
        }
    },

    {
      "type": "Feature",
      "geometry": {
        "type": "Point",
        "coordinates": [17.822144, 51.649895]
      },
      "properties": {
        "name": "Kaliska Bank",
        "description": "_2, _5, _5B, _6, 18"
        }
    },

    {
      "type": "Feature",
      "geometry": {
        "type": "Point",
        "coordinates": [17.827353, 51.649993]
      },
      "properties": {
        "name": "Kaliska Biedronka",
        "description": "_2, _5, _5B, _6, _9, 18, 25"
        }
    },

    {
      "type": "Feature",
      "geometry": {
        "type": "Point",
        "coordinates": [17.827161, 51.65023]
      },
      "properties": {
        "name": "Kaliska Biedronka",
        "description": "_2, _5, _5B, _6, _9, 18, 25"
        }
    },

    {
      "type": "Feature",
      "geometry": {
        "type": "Point",
        "coordinates": [17.830051, 51.650905]
      },
      "properties": {
        "name": "Kaliska Spomasz",
        "description": "_5, _5B, _6, 11, 19E, 20, 21, M"
        }
    },

    {
      "type": "Feature",
      "geometry": {
        "type": "Point",
        "coordinates": [17.829785, 51.650381]
      },
      "properties": {
        "name": "Kaliska Spomasz",
        "description": "_6, 11, 19E, 20, 21, M"
        }
    },

    {
      "type": "Feature",
      "geometry": {
        "type": "Point",
        "coordinates": [18.091741, 51.7654]
      },
      "properties": {
        "name": "Kalisz - Babina",
        "description": "19E, M"
        }
    },

    {
      "type": "Feature",
      "geometry": {
        "type": "Point",
        "coordinates": [18.087198, 51.764812]
      },
      "properties": {
        "name": "Kalisz - Nowy Rynek Babina",
        "description": "19E, M"
        }
    },

    {
      "type": "Feature",
      "geometry": {
        "type": "Point",
        "coordinates": [18.090577, 51.764892]
      },
      "properties": {
        "name": "Kalisz - Parczewskiego",
        "description": "19E, M"
        }
    },

    {
      "type": "Feature",
      "geometry": {
        "type": "Point",
        "coordinates": [18.099568, 51.769978]
      },
      "properties": {
        "name": "Kalisz - Pucka szpital",
        "description": "M"
        }
    },

    {
      "type": "Feature",
      "geometry": {
        "type": "Point",
        "coordinates": [18.10064, 51.767547]
      },
      "properties": {
        "name": "Kalisz - Toruńska Gdańska",
        "description": "M"
        }
    },

    {
      "type": "Feature",
      "geometry": {
        "type": "Point",
        "coordinates": [18.100566, 51.76786]
      },
      "properties": {
        "name": "Kalisz - Toruńska Gdańska",
        "description": "M"
        }
    },

    {
      "type": "Feature",
      "geometry": {
        "type": "Point",
        "coordinates": [18.090599, 51.766937]
      },
      "properties": {
        "name": "Kalisz 3 Maja",
        "description": "19E"
        }
    },

    {
      "type": "Feature",
      "geometry": {
        "type": "Point",
        "coordinates": [18.090835, 51.766685]
      },
      "properties": {
        "name": "Kalisz 3 Maja",
        "description": "19E"
        }
    },

    {
      "type": "Feature",
      "geometry": {
        "type": "Point",
        "coordinates": [18.060665, 51.747254]
      },
      "properties": {
        "name": "Kalisz-Wojska Polskiego RONDO",
        "description": "19E, M"
        }
    },

    {
      "type": "Feature",
      "geometry": {
        "type": "Point",
        "coordinates": [18.060851, 51.747074]
      },
      "properties": {
        "name": "Kalisz-Wojska Polskiego RONDO",
        "description": "19E, M"
        }
    },

    {
      "type": "Feature",
      "geometry": {
        "type": "Point",
        "coordinates": [17.825904, 51.632059]
      },
      "properties": {
        "name": "Kamienna",
        "description": "_4, _7, 13, 15"
        }
    },

    {
      "type": "Feature",
      "geometry": {
        "type": "Point",
        "coordinates": [17.826178, 51.632235]
      },
      "properties": {
        "name": "Kamienna",
        "description": "_4, _7, 13"
        }
    },

    {
      "type": "Feature",
      "geometry": {
        "type": "Point",
        "coordinates": [17.826757, 51.62441]
      },
      "properties": {
        "name": "Kamienna Łączność",
        "description": "_4, _7, 13"
        }
    },

    {
      "type": "Feature",
      "geometry": {
        "type": "Point",
        "coordinates": [17.826629, 51.62401]
      },
      "properties": {
        "name": "Kamienna Łączność",
        "description": "_4, _7, 13, 15"
        }
    },

    {
      "type": "Feature",
      "geometry": {
        "type": "Point",
        "coordinates": [17.828688, 51.621506]
      },
      "properties": {
        "name": "Kamienna Południowa",
        "description": "_4, _7"
        }
    },

    {
      "type": "Feature",
      "geometry": {
        "type": "Point",
        "coordinates": [17.828474, 51.621053]
      },
      "properties": {
        "name": "Kamienna Południowa",
        "description": "_4, _7"
        }
    },

    {
      "type": "Feature",
      "geometry": {
        "type": "Point",
        "coordinates": [17.826049, 51.627713]
      },
      "properties": {
        "name": "Kamienna Wiśniowa",
        "description": "_4, _7, 13"
        }
    },

    {
      "type": "Feature",
      "geometry": {
        "type": "Point",
        "coordinates": [17.825513, 51.627753]
      },
      "properties": {
        "name": "Kamienna Wiśniowa",
        "description": "_4, _7, 13, 15"
        }
    },

    {
      "type": "Feature",
      "geometry": {
        "type": "Point",
        "coordinates": [17.690968, 51.838239]
      },
      "properties": {
        "name": "Karmin",
        "description": "_5B"
        }
    },

    {
      "type": "Feature",
      "geometry": {
        "type": "Point",
        "coordinates": [17.682642, 51.836223]
      },
      "properties": {
        "name": "Karmin cmentarz",
        "description": "_5B"
        }
    },

    {
      "type": "Feature",
      "geometry": {
        "type": "Point",
        "coordinates": [17.680411, 51.835958]
      },
      "properties": {
        "name": "Karmin cmentarz",
        "description": "_5B"
        }
    },

    {
      "type": "Feature",
      "geometry": {
        "type": "Point",
        "coordinates": [17.687878, 51.816331]
      },
      "properties": {
        "name": "Karminek I",
        "description": "_5B"
        }
    },

    {
      "type": "Feature",
      "geometry": {
        "type": "Point",
        "coordinates": [17.685904, 51.816277]
      },
      "properties": {
        "name": "Karminek I",
        "description": "_5B"
        }
    },

    {
      "type": "Feature",
      "geometry": {
        "type": "Point",
        "coordinates": [17.687449, 51.81893]
      },
      "properties": {
        "name": "Karminek II",
        "description": "_5B"
        }
    },

    {
      "type": "Feature",
      "geometry": {
        "type": "Point",
        "coordinates": [17.685131, 51.81909]
      },
      "properties": {
        "name": "Karminek II",
        "description": "_5B"
        }
    },

    {
      "type": "Feature",
      "geometry": {
        "type": "Point",
        "coordinates": [17.837929, 51.678176]
      },
      "properties": {
        "name": "Karski",
        "description": "14"
        }
    },

    {
      "type": "Feature",
      "geometry": {
        "type": "Point",
        "coordinates": [17.838277, 51.67797]
      },
      "properties": {
        "name": "Karski",
        "description": "14"
        }
    },

    {
      "type": "Feature",
      "geometry": {
        "type": "Point",
        "coordinates": [17.851135, 51.675558]
      },
      "properties": {
        "name": "Karski I świetlica",
        "description": "14"
        }
    },

    {
      "type": "Feature",
      "geometry": {
        "type": "Point",
        "coordinates": [17.849762, 51.677048]
      },
      "properties": {
        "name": "Karski I świetlica",
        "description": "14"
        }
    },

    {
      "type": "Feature",
      "geometry": {
        "type": "Point",
        "coordinates": [17.860061, 51.674387]
      },
      "properties": {
        "name": "Karski II",
        "description": "14"
        }
    },

    {
      "type": "Feature",
      "geometry": {
        "type": "Point",
        "coordinates": [17.862293, 51.675664]
      },
      "properties": {
        "name": "Karski II",
        "description": "14"
        }
    },

    {
      "type": "Feature",
      "geometry": {
        "type": "Point",
        "coordinates": [17.867614, 51.676516]
      },
      "properties": {
        "name": "Karski III",
        "description": "14"
        }
    },

    {
      "type": "Feature",
      "geometry": {
        "type": "Point",
        "coordinates": [17.868129, 51.675026]
      },
      "properties": {
        "name": "Karski III",
        "description": "14"
        }
    },

    {
      "type": "Feature",
      "geometry": {
        "type": "Point",
        "coordinates": [17.83485, 51.675398]
      },
      "properties": {
        "name": "Karski n.ż.",
        "description": "14"
        }
    },

    {
      "type": "Feature",
      "geometry": {
        "type": "Point",
        "coordinates": [17.834587, 51.675513]
      },
      "properties": {
        "name": "Karski n.ż.",
        "description": "14"
        }
    },

    {
      "type": "Feature",
      "geometry": {
        "type": "Point",
        "coordinates": [17.828221, 51.632513]
      },
      "properties": {
        "name": "Klasztorna I",
        "description": "_4, _7, 13, C"
        }
    },

    {
      "type": "Feature",
      "geometry": {
        "type": "Point",
        "coordinates": [17.82762, 51.63267]
      },
      "properties": {
        "name": "Klasztorna I",
        "description": "_4, _7, 13, 15, C"
        }
    },

    {
      "type": "Feature",
      "geometry": {
        "type": "Point",
        "coordinates": [17.833953, 51.631285]
      },
      "properties": {
        "name": "Klasztorna II",
        "description": "_4"
        }
    },

    {
      "type": "Feature",
      "geometry": {
        "type": "Point",
        "coordinates": [17.833565, 51.63156]
      },
      "properties": {
        "name": "Klasztorna II",
        "description": "_4"
        }
    },

    {
      "type": "Feature",
      "geometry": {
        "type": "Point",
        "coordinates": [17.838738, 51.630126]
      },
      "properties": {
        "name": "Klasztorna III",
        "description": "_4"
        }
    },

    {
      "type": "Feature",
      "geometry": {
        "type": "Point",
        "coordinates": [17.838415, 51.630459]
      },
      "properties": {
        "name": "Klasztorna III",
        "description": "_4"
        }
    },

    {
      "type": "Feature",
      "geometry": {
        "type": "Point",
        "coordinates": [17.775555, 51.655225]
      },
      "properties": {
        "name": "Kłosowa",
        "description": "_1"
        }
    },

    {
      "type": "Feature",
      "geometry": {
        "type": "Point",
        "coordinates": [17.774783, 51.655637]
      },
      "properties": {
        "name": "Kłosowa",
        "description": "_1"
        }
    },

    {
      "type": "Feature",
      "geometry": {
        "type": "Point",
        "coordinates": [17.861983, 51.686032]
      },
      "properties": {
        "name": "Kołątajew Dw. PKP",
        "description": "14"
        }
    },

    {
      "type": "Feature",
      "geometry": {
        "type": "Point",
        "coordinates": [17.861811, 51.686118]
      },
      "properties": {
        "name": "Kołątajew Dw. PKP",
        "description": "14"
        }
    },

    {
      "type": "Feature",
      "geometry": {
        "type": "Point",
        "coordinates": [17.862462, 51.685871]
      },
      "properties": {
        "name": "Kołątajew Dw.PKP",
        "description": "14"
        }
    },

    {
      "type": "Feature",
      "geometry": {
        "type": "Point",
        "coordinates": [17.850471, 51.686957]
      },
      "properties": {
        "name": "Kołątajew I",
        "description": "14"
        }
    },

    {
      "type": "Feature",
      "geometry": {
        "type": "Point",
        "coordinates": [17.84973, 51.687023]
      },
      "properties": {
        "name": "Kołątajew I",
        "description": "14"
        }
    },

    {
      "type": "Feature",
      "geometry": {
        "type": "Point",
        "coordinates": [17.844742, 51.683179]
      },
      "properties": {
        "name": "Kołątajew n.ż.",
        "description": "14"
        }
    },

    {
      "type": "Feature",
      "geometry": {
        "type": "Point",
        "coordinates": [17.845342, 51.682993]
      },
      "properties": {
        "name": "Kołątajew n.ż.",
        "description": "14"
        }
    },

    {
      "type": "Feature",
      "geometry": {
        "type": "Point",
        "coordinates": [17.851957, 51.686531]
      },
      "properties": {
        "name": "Kołątajew skrzyżowanie",
        "description": "14"
        }
    },

    {
      "type": "Feature",
      "geometry": {
        "type": "Point",
        "coordinates": [17.852059, 51.686179]
      },
      "properties": {
        "name": "Kołątajew skrzyżowanie",
        "description": "14"
        }
    },

    {
      "type": "Feature",
      "geometry": {
        "type": "Point",
        "coordinates": [17.821078, 51.645222]
      },
      "properties": {
        "name": "Kompałły",
        "description": "_6, _7, 19E, 20, 21, M"
        }
    },

    {
      "type": "Feature",
      "geometry": {
        "type": "Point",
        "coordinates": [17.821265, 51.645079]
      },
      "properties": {
        "name": "Kompałły",
        "description": "_6, _7, 19E, 20, 21, M"
        }
    },

    {
      "type": "Feature",
      "geometry": {
        "type": "Point",
        "coordinates": [17.833841, 51.637311]
      },
      "properties": {
        "name": "Komuny Paryskiej",
        "description": "_8, 10, 25"
        }
    },

    {
      "type": "Feature",
      "geometry": {
        "type": "Point",
        "coordinates": [17.823, 51.639182]
      },
      "properties": {
        "name": "Komuny Paryskiej",
        "description": "_8, 10, 25, C"
        }
    },

    {
      "type": "Feature",
      "geometry": {
        "type": "Point",
        "coordinates": [17.823225, 51.639262]
      },
      "properties": {
        "name": "Komuny Paryskiej",
        "description": "_8, C"
        }
    },

    {
      "type": "Feature",
      "geometry": {
        "type": "Point",
        "coordinates": [17.825279, 51.638436]
      },
      "properties": {
        "name": "Komuny Paryskiej I",
        "description": "_8, 10, 25, C"
        }
    },

    {
      "type": "Feature",
      "geometry": {
        "type": "Point",
        "coordinates": [17.824936, 51.638436]
      },
      "properties": {
        "name": "Komuny Paryskiej I",
        "description": "_8, 10, 25, C"
        }
    },

    {
      "type": "Feature",
      "geometry": {
        "type": "Point",
        "coordinates": [17.827667, 51.637757]
      },
      "properties": {
        "name": "Komuny Paryskiej II",
        "description": "_8, 10, 25, C"
        }
    },

    {
      "type": "Feature",
      "geometry": {
        "type": "Point",
        "coordinates": [17.82794, 51.63764]
      },
      "properties": {
        "name": "Komuny Paryskiej II",
        "description": "_8, 10, 25, C"
        }
    },

    {
      "type": "Feature",
      "geometry": {
        "type": "Point",
        "coordinates": [17.830928, 51.637557]
      },
      "properties": {
        "name": "Komuny Paryskiej III",
        "description": "_8, 10, 25"
        }
    },

    {
      "type": "Feature",
      "geometry": {
        "type": "Point",
        "coordinates": [17.831302, 51.637319]
      },
      "properties": {
        "name": "Komuny Paryskiej III",
        "description": "_8, 10, 25"
        }
    },

    {
      "type": "Feature",
      "geometry": {
        "type": "Point",
        "coordinates": [17.791825, 51.646082]
      },
      "properties": {
        "name": "Kordeckiego I",
        "description": "25"
        }
    },

    {
      "type": "Feature",
      "geometry": {
        "type": "Point",
        "coordinates": [17.791771, 51.646024]
      },
      "properties": {
        "name": "Kordeckiego I",
        "description": "25"
        }
    },

    {
      "type": "Feature",
      "geometry": {
        "type": "Point",
        "coordinates": [17.786201, 51.646598]
      },
      "properties": {
        "name": "Kordeckiego szkoła",
        "description": "10, 22, 25"
        }
    },

    {
      "type": "Feature",
      "geometry": {
        "type": "Point",
        "coordinates": [17.786163, 51.646533]
      },
      "properties": {
        "name": "Kordeckiego szkoła",
        "description": "10, 22, 25"
        }
    },

    {
      "type": "Feature",
      "geometry": {
        "type": "Point",
        "coordinates": [17.783745, 51.646841]
      },
      "properties": {
        "name": "Kordeckiego Urząd Skarbowy",
        "description": "10, 22, 25"
        }
    },

    {
      "type": "Feature",
      "geometry": {
        "type": "Point",
        "coordinates": [17.690233, 51.801259]
      },
      "properties": {
        "name": "Koryta ",
        "description": "_5B"
        }
    },

    {
      "type": "Feature",
      "geometry": {
        "type": "Point",
        "coordinates": [17.690619, 51.800622]
      },
      "properties": {
        "name": "Koryta ",
        "description": "_5B"
        }
    },

    {
      "type": "Feature",
      "geometry": {
        "type": "Point",
        "coordinates": [17.687057, 51.806619]
      },
      "properties": {
        "name": "Koryta II",
        "description": "_5B"
        }
    },

    {
      "type": "Feature",
      "geometry": {
        "type": "Point",
        "coordinates": [17.68783, 51.807044]
      },
      "properties": {
        "name": "Koryta II",
        "description": "_5B"
        }
    },

    {
      "type": "Feature",
      "geometry": {
        "type": "Point",
        "coordinates": [17.687315, 51.804921]
      },
      "properties": {
        "name": "Koryta II szkoła",
        "description": "_5B"
        }
    },

    {
      "type": "Feature",
      "geometry": {
        "type": "Point",
        "coordinates": [17.688216, 51.80516]
      },
      "properties": {
        "name": "Koryta II szkoła",
        "description": "_5B"
        }
    },

    {
      "type": "Feature",
      "geometry": {
        "type": "Point",
        "coordinates": [17.710146, 51.770411]
      },
      "properties": {
        "name": "Korytnica",
        "description": "_5B"
        }
    },

    {
      "type": "Feature",
      "geometry": {
        "type": "Point",
        "coordinates": [17.706283, 51.770278]
      },
      "properties": {
        "name": "Korytnica",
        "description": "_5B"
        }
    },

    {
      "type": "Feature",
      "geometry": {
        "type": "Point",
        "coordinates": [17.703643, 51.779392]
      },
      "properties": {
        "name": "Korytnica I",
        "description": "_5B"
        }
    },

    {
      "type": "Feature",
      "geometry": {
        "type": "Point",
        "coordinates": [17.702098, 51.778542]
      },
      "properties": {
        "name": "Korytnica I",
        "description": "_5B"
        }
    },

    {
      "type": "Feature",
      "geometry": {
        "type": "Point",
        "coordinates": [17.809737, 51.640779]
      },
      "properties": {
        "name": "Kościuszki Armii Krajowej",
        "description": "_1"
        }
    },

    {
      "type": "Feature",
      "geometry": {
        "type": "Point",
        "coordinates": [17.810038, 51.640566]
      },
      "properties": {
        "name": "Kościuszki Armii Krajowej",
        "description": "_1, 15"
        }
    },

    {
      "type": "Feature",
      "geometry": {
        "type": "Point",
        "coordinates": [17.813342, 51.644068]
      },
      "properties": {
        "name": "Kościuszki Bank",
        "description": "_1, 15"
        }
    },

    {
      "type": "Feature",
      "geometry": {
        "type": "Point",
        "coordinates": [17.940759779502017, 51.76927339406741]
      },
      "properties": {
        "name": "Kościuszków I",
        "description": "21"
        }
    },

    {
      "type": "Feature",
      "geometry": {
        "type": "Point",
        "coordinates": [17.937334561400345, 51.71701197326861]
      },
      "properties": {
        "name": "Kościuszków I",
        "description": "21"
        }
    },

    {
      "type": "Feature",
      "geometry": {
        "type": "Point",
        "coordinates": [17.942890810194086, 51.72636359865904]
      },
      "properties": {
        "name": "Kościuszków II",
        "description": "21"
        }
    },

    {
      "type": "Feature",
      "geometry": {
        "type": "Point",
        "coordinates": [17.942819595336914, 51.72678891715326]
      },
      "properties": {
        "name": "Kościuszków II",
        "description": "21"
        }
    },

    {
      "type": "Feature",
      "geometry": {
        "type": "Point",
        "coordinates": [17.94093144087897, 51.76879536028767]
      },
      "properties": {
        "name": "Kotowiecko",
        "description": "21"
        }
    },

    {
      "type": "Feature",
      "geometry": {
        "type": "Point",
        "coordinates": [17.786028, 51.621727]
      },
      "properties": {
        "name": "Krańcowa",
        "description": "14"
        }
    },

    {
      "type": "Feature",
      "geometry": {
        "type": "Point",
        "coordinates": [17.785717, 51.62184]
      },
      "properties": {
        "name": "Krańcowa",
        "description": "14"
        }
    },

    {
      "type": "Feature",
      "geometry": {
        "type": "Point",
        "coordinates": [17.441204, 51.695774]
      },
      "properties": {
        "name": "Krotoszyn Al. Powstańców Wlkp.",
        "description": "K-1"
        }
    },

    {
      "type": "Feature",
      "geometry": {
        "type": "Point",
        "coordinates": [17.428522, 51.701538]
      },
      "properties": {
        "name": "Krotoszyn Dw. PKS",
        "description": "K-1"
        }
    },

    {
      "type": "Feature",
      "geometry": {
        "type": "Point",
        "coordinates": [17.43438, 51.696306]
      },
      "properties": {
        "name": "Krotoszyn Floriańska",
        "description": "K-1"
        }
    },

    {
      "type": "Feature",
      "geometry": {
        "type": "Point",
        "coordinates": [17.435668, 51.699619]
      },
      "properties": {
        "name": "Krotoszyn Mickiewicza",
        "description": "K-1"
        }
    },

    {
      "type": "Feature",
      "geometry": {
        "type": "Point",
        "coordinates": [17.439895, 51.691917]
      },
      "properties": {
        "name": "Krotoszyn Ogrodowskiego",
        "description": "K-1"
        }
    },

    {
      "type": "Feature",
      "geometry": {
        "type": "Point",
        "coordinates": [17.449765, 51.692542]
      },
      "properties": {
        "name": "Krotoszyn Ostrowska",
        "description": "K-1"
        }
    },

    {
      "type": "Feature",
      "geometry": {
        "type": "Point",
        "coordinates": [17.449014, 51.69362]
      },
      "properties": {
        "name": "Krotoszyn Ostrowska",
        "description": "K-1"
        }
    },

    {
      "type": "Feature",
      "geometry": {
        "type": "Point",
        "coordinates": [17.476097, 51.681751]
      },
      "properties": {
        "name": "Krotoszyn Zmysłów",
        "description": "K-1"
        }
    },

    {
      "type": "Feature",
      "geometry": {
        "type": "Point",
        "coordinates": [17.474982, 51.681831]
      },
      "properties": {
        "name": "Krotoszyn Zmysłów",
        "description": "K-1"
        }
    },

    {
      "type": "Feature",
      "geometry": {
        "type": "Point",
        "coordinates": [17.779342, 51.657525]
      },
      "properties": {
        "name": "Krotoszynska I",
        "description": "_1, _9, 13, 15, 22, 25, K-1"
        }
    },

    {
      "type": "Feature",
      "geometry": {
        "type": "Point",
        "coordinates": [17.781822, 51.656886]
      },
      "properties": {
        "name": "Krotoszynska I",
        "description": "_1, 13, 15, 22, 25, K-1"
        }
    },

    {
      "type": "Feature",
      "geometry": {
        "type": "Point",
        "coordinates": [17.787602, 51.656077]
      },
      "properties": {
        "name": "Krotoszyńska Bema",
        "description": "13, 15, 22, K-1"
        }
    },

    {
      "type": "Feature",
      "geometry": {
        "type": "Point",
        "coordinates": [17.789736, 51.65584]
      },
      "properties": {
        "name": "Krotoszyńska Bema",
        "description": "13, 15, 22, K-1"
        }
    },

    {
      "type": "Feature",
      "geometry": {
        "type": "Point",
        "coordinates": [17.794205, 51.655791]
      },
      "properties": {
        "name": "Krotoszyńska Sowińskiego",
        "description": "10, 13, 15, K-1"
        }
    },

    {
      "type": "Feature",
      "geometry": {
        "type": "Point",
        "coordinates": [17.797391, 51.655927]
      },
      "properties": {
        "name": "Krotoszyńska Sowińskiego",
        "description": "10, 13, 15, K-1"
        }
    },

    {
      "type": "Feature",
      "geometry": {
        "type": "Point",
        "coordinates": [17.800924, 51.656026]
      },
      "properties": {
        "name": "Krotoszyńska ZAP",
        "description": "_1, _2, _5, _5B, _6, _7, _8, _9, 10, 12, 13, 14, 15, 18, 20, 21, K-1, M, P"
        }
    },

    {
      "type": "Feature",
      "geometry": {
        "type": "Point",
        "coordinates": [17.805285, 51.65563]
      },
      "properties": {
        "name": "Krotoszyńska ZAP - wiadukt",
        "description": "_1, _2, _5, _5B, _6, _7, _8, _9, 10, 12, 13, 14, 15, 18, 20, 21, K-1, M, P"
        }
    },

    {
      "type": "Feature",
      "geometry": {
        "type": "Point",
        "coordinates": [17.850672, 51.812411]
      },
      "properties": {
        "name": "Krzywosądów",
        "description": "P"
        }
    },

    {
      "type": "Feature",
      "geometry": {
        "type": "Point",
        "coordinates": [17.850243, 51.812192]
      },
      "properties": {
        "name": "Krzywosądów",
        "description": "P"
        }
    },

    {
      "type": "Feature",
      "geometry": {
        "type": "Point",
        "coordinates": [17.829382, 51.647443]
      },
      "properties": {
        "name": "Ks.Kar.Ledóchowskiego II",
        "description": "10, 13"
        }
    },

    {
      "type": "Feature",
      "geometry": {
        "type": "Point",
        "coordinates": [17.830798, 51.647044]
      },
      "properties": {
        "name": "Ks.Kar.Ledóchowskiego II",
        "description": "10, 13, 15"
        }
    },

    {
      "type": "Feature",
      "geometry": {
        "type": "Point",
        "coordinates": [17.821725, 51.648013]
      },
      "properties": {
        "name": "Ks.Kar.Ledóchowskiego park",
        "description": "_8, 10, 13, 15, 25"
        }
    },

    {
      "type": "Feature",
      "geometry": {
        "type": "Point",
        "coordinates": [17.841048, 51.829832]
      },
      "properties": {
        "name": "Kuczków",
        "description": "P"
        }
    },

    {
      "type": "Feature",
      "geometry": {
        "type": "Point",
        "coordinates": [17.840104, 51.829488]
      },
      "properties": {
        "name": "Kuczków",
        "description": "P"
        }
    },

    {
      "type": "Feature",
      "geometry": {
        "type": "Point",
        "coordinates": [17.94942867903815, 51.736224031716276]
      },
      "properties": {
        "name": "Kurów",
        "description": "21"
        }
    },

    {
      "type": "Feature",
      "geometry": {
        "type": "Point",
        "coordinates": [17.95063030867682, 51.736224031716276]
      },
      "properties": {
        "name": "Kurów",
        "description": "21"
        }
    },

    {
      "type": "Feature",
      "geometry": {
        "type": "Point",
        "coordinates": [17.812043, 51.628376]
      },
      "properties": {
        "name": "Kuźnia",
        "description": "_5B, 14, 15, K-1"
        }
    },

    {
      "type": "Feature",
      "geometry": {
        "type": "Point",
        "coordinates": [17.895886, 51.705363]
      },
      "properties": {
        "name": "Kwiatków",
        "description": "14"
        }
    },

    {
      "type": "Feature",
      "geometry": {
        "type": "Point",
        "coordinates": [17.8961, 51.705044]
      },
      "properties": {
        "name": "Kwiatków",
        "description": "14"
        }
    },

    {
      "type": "Feature",
      "geometry": {
        "type": "Point",
        "coordinates": [17.896401, 51.704618]
      },
      "properties": {
        "name": "Kwiatków",
        "description": "14"
        }
    },

    {
      "type": "Feature",
      "geometry": {
        "type": "Point",
        "coordinates": [17.886144, 51.703102]
      },
      "properties": {
        "name": "Kwiatków I szkoła",
        "description": "14"
        }
    },

    {
      "type": "Feature",
      "geometry": {
        "type": "Point",
        "coordinates": [17.886444, 51.702836]
      },
      "properties": {
        "name": "Kwiatków I szkoła",
        "description": "14"
        }
    },

    {
      "type": "Feature",
      "geometry": {
        "type": "Point",
        "coordinates": [17.879149, 51.70156]
      },
      "properties": {
        "name": "Kwiatków II",
        "description": "14"
        }
    },

    {
      "type": "Feature",
      "geometry": {
        "type": "Point",
        "coordinates": [17.878763, 51.701826]
      },
      "properties": {
        "name": "Kwiatków II",
        "description": "14"
        }
    },

    {
      "type": "Feature",
      "geometry": {
        "type": "Point",
        "coordinates": [17.903139, 51.706427]
      },
      "properties": {
        "name": "Kwiatków n.ż.",
        "description": "14"
        }
    },

    {
      "type": "Feature",
      "geometry": {
        "type": "Point",
        "coordinates": [17.902881, 51.706693]
      },
      "properties": {
        "name": "Kwiatków n.ż.",
        "description": "14"
        }
    },

    {
      "type": "Feature",
      "geometry": {
        "type": "Point",
        "coordinates": [17.798611, 51.643172]
      },
      "properties": {
        "name": "Kwiatowa",
        "description": "25"
        }
    },

    {
      "type": "Feature",
      "geometry": {
        "type": "Point",
        "coordinates": [17.798139, 51.643571]
      },
      "properties": {
        "name": "Kwiatowa",
        "description": "25"
        }
    },

    {
      "type": "Feature",
      "geometry": {
        "type": "Point",
        "coordinates": [17.74746, 51.657242]
      },
      "properties": {
        "name": "Lamki I",
        "description": "15, K-1"
        }
    },

    {
      "type": "Feature",
      "geometry": {
        "type": "Point",
        "coordinates": [17.750304, 51.657309]
      },
      "properties": {
        "name": "Lamki I",
        "description": "15, K-1"
        }
    },

    {
      "type": "Feature",
      "geometry": {
        "type": "Point",
        "coordinates": [17.741865, 51.65655]
      },
      "properties": {
        "name": "Lamki II",
        "description": "15, K-1"
        }
    },

    {
      "type": "Feature",
      "geometry": {
        "type": "Point",
        "coordinates": [17.738588, 51.656763]
      },
      "properties": {
        "name": "Lamki II",
        "description": "15, K-1"
        }
    },

    {
      "type": "Feature",
      "geometry": {
        "type": "Point",
        "coordinates": [17.732226, 51.656946]
      },
      "properties": {
        "name": "Lamki III",
        "description": "15, K-1"
        }
    },

    {
      "type": "Feature",
      "geometry": {
        "type": "Point",
        "coordinates": [17.729479, 51.657665]
      },
      "properties": {
        "name": "Lamki III",
        "description": "15, K-1"
        }
    },

    {
      "type": "Feature",
      "geometry": {
        "type": "Point",
        "coordinates": [17.691612, 51.66029]
      },
      "properties": {
        "name": "Lamki las n.ż.",
        "description": "15, K-1"
        }
    },

    {
      "type": "Feature",
      "geometry": {
        "type": "Point",
        "coordinates": [17.691118, 51.66037]
      },
      "properties": {
        "name": "Lamki las n.ż.",
        "description": "15, K-1"
        }
    },

    {
      "type": "Feature",
      "geometry": {
        "type": "Point",
        "coordinates": [17.708842, 51.659665]
      },
      "properties": {
        "name": "Lamki pętla",
        "description": "15, K-1"
        }
    },

    {
      "type": "Feature",
      "geometry": {
        "type": "Point",
        "coordinates": [17.70852, 51.659891]
      },
      "properties": {
        "name": "Lamki pętla",
        "description": "15, K-1"
        }
    },

    {
      "type": "Feature",
      "geometry": {
        "type": "Point",
        "coordinates": [17.729573, 51.664783]
      },
      "properties": {
        "name": "Lamki szkoła",
        "description": "15, K-1"
        }
    },

    {
      "type": "Feature",
      "geometry": {
        "type": "Point",
        "coordinates": [17.730478, 51.664677]
      },
      "properties": {
        "name": "Lamki szkoła",
        "description": "15, K-1"
        }
    },

    {
      "type": "Feature",
      "geometry": {
        "type": "Point",
        "coordinates": [17.728848, 51.65898]
      },
      "properties": {
        "name": "Lamki Świeligów",
        "description": "15, K-1"
        }
    },

    {
      "type": "Feature",
      "geometry": {
        "type": "Point",
        "coordinates": [17.728247, 51.659353]
      },
      "properties": {
        "name": "Lamki Świeligów",
        "description": "15, K-1"
        }
    },

    {
      "type": "Feature",
      "geometry": {
        "type": "Point",
        "coordinates": [17.717908, 51.658853]
      },
      "properties": {
        "name": "Lamki Zalesie",
        "description": "15, K-1"
        }
    },

    {
      "type": "Feature",
      "geometry": {
        "type": "Point",
        "coordinates": [17.714995, 51.659249]
      },
      "properties": {
        "name": "Lamki Zalesie",
        "description": "15, K-1"
        }
    },

    {
      "type": "Feature",
      "geometry": {
        "type": "Point",
        "coordinates": [17.96432, 51.644309]
      },
      "properties": {
        "name": "Latowice I",
        "description": "_2, _6, 18"
        }
    },

    {
      "type": "Feature",
      "geometry": {
        "type": "Point",
        "coordinates": [17.964063, 51.644655]
      },
      "properties": {
        "name": "Latowice I",
        "description": "_2, _6, 18"
        }
    },

    {
      "type": "Feature",
      "geometry": {
        "type": "Point",
        "coordinates": [17.962805, 51.641925]
      },
      "properties": {
        "name": "Latowice II",
        "description": "_2, _6, 18"
        }
    },

    {
      "type": "Feature",
      "geometry": {
        "type": "Point",
        "coordinates": [17.962419, 51.641712]
      },
      "properties": {
        "name": "Latowice II",
        "description": "_2, _6, 18"
        }
    },

    {
      "type": "Feature",
      "geometry": {
        "type": "Point",
        "coordinates": [17.856608, 51.704718]
      },
      "properties": {
        "name": "Lewków n.ż.",
        "description": "14"
        }
    },

    {
      "type": "Feature",
      "geometry": {
        "type": "Point",
        "coordinates": [17.86136, 51.691333]
      },
      "properties": {
        "name": "Lewków cmentarz",
        "description": "14"
        }
    },

    {
      "type": "Feature",
      "geometry": {
        "type": "Point",
        "coordinates": [17.860722, 51.691186]
      },
      "properties": {
        "name": "Lewków cmentarz",
        "description": "14"
        }
    },

    {
      "type": "Feature",
      "geometry": {
        "type": "Point",
        "coordinates": [17.855814, 51.694186]
      },
      "properties": {
        "name": "Lewków I",
        "description": "14"
        }
    },

    {
      "type": "Feature",
      "geometry": {
        "type": "Point",
        "coordinates": [17.855234, 51.693854]
      },
      "properties": {
        "name": "Lewków I",
        "description": "14"
        }
    },

    {
      "type": "Feature",
      "geometry": {
        "type": "Point",
        "coordinates": [17.855658, 51.695315]
      },
      "properties": {
        "name": "Lewków lotnisko skrzyżowanie",
        "description": "14"
        }
    },

    {
      "type": "Feature",
      "geometry": {
        "type": "Point",
        "coordinates": [17.855708, 51.69526]
      },
      "properties": {
        "name": "Lewków lotnisko skrzyżowanie",
        "description": "14"
        }
    },

    {
      "type": "Feature",
      "geometry": {
        "type": "Point",
        "coordinates": [17.857015, 51.704758]
      },
      "properties": {
        "name": "Lewków n.ż.",
        "description": "14"
        }
    },

    {
      "type": "Feature",
      "geometry": {
        "type": "Point",
        "coordinates": [17.864696, 51.684925]
      },
      "properties": {
        "name": "Lewków Osiedle przejazd",
        "description": "14"
        }
    },

    {
      "type": "Feature",
      "geometry": {
        "type": "Point",
        "coordinates": [17.866241, 51.685244]
      },
      "properties": {
        "name": "Lewków Osiedle przejazd",
        "description": "14"
        }
    },

    {
      "type": "Feature",
      "geometry": {
        "type": "Point",
        "coordinates": [17.862104, 51.694716]
      },
      "properties": {
        "name": "Lewków park",
        "description": "14"
        }
    },

    {
      "type": "Feature",
      "geometry": {
        "type": "Point",
        "coordinates": [17.862236, 51.694782]
      },
      "properties": {
        "name": "Lewków park",
        "description": "14"
        }
    },

    {
      "type": "Feature",
      "geometry": {
        "type": "Point",
        "coordinates": [17.867905, 51.698155]
      },
      "properties": {
        "name": "Lewków SKR",
        "description": "14"
        }
    },

    {
      "type": "Feature",
      "geometry": {
        "type": "Point",
        "coordinates": [17.86769, 51.698421]
      },
      "properties": {
        "name": "Lewków SKR",
        "description": "14"
        }
    },

    {
      "type": "Feature",
      "geometry": {
        "type": "Point",
        "coordinates": [17.861183, 51.695191]
      },
      "properties": {
        "name": "Lewków wiata",
        "description": "14"
        }
    },

    {
      "type": "Feature",
      "geometry": {
        "type": "Point",
        "coordinates": [17.861111, 51.695315]
      },
      "properties": {
        "name": "Lewków wiata",
        "description": "14"
        }
    },

    {
      "type": "Feature",
      "geometry": {
        "type": "Point",
        "coordinates": [18.03536, 51.666251]
      },
      "properties": {
        "name": "Leziona",
        "description": "20"
        }
    },